{
"type": "FeatureCollection",
"name": "Hospitals_from _csv",
"crs": { "type": "name", "properties": { "name": "urn:ogc:def:crs:OGC:1.3:CRS84" } },
"features": [
{ "type": "Feature", "properties": { "X": -13101630.6588454, "Y": 6036133.0018899003, "OBJECTID": 1, "NAME": "Eastern State Hospital", "LINK": 1, "ADDRESS": "850 Maple Street   P.O. Box A", "CITY": "Medical Lake", "ZIP": 99022, "ZIP4": "0045", "PHONE": "(509) 565-4000", "FAX": "(509) 565-4705", "ACUTE": "No", "ICU": "No", "CAH": "No", "Heli": "No", "Weblink": "https://www.dshs.wa.gov/bhsia/division-state-hospitals/eastern-state-hospital-overview", "Beds_Total": 317, "Beds_Total_ICU": 0, "Updated": "2020-12-02T14:44:07", "Beds_Psychiatric": 91 }, "geometry": { "type": "Point", "coordinates": [ -13101630.658845400437713, 6036133.001889900304377 ] } },
{ "type": "Feature", "properties": { "X": -13642456.313208301, "Y": 5959829.8189526303, "OBJECTID": 2, "NAME": "Madigan Army Medical Center", "LINK": 2, "ADDRESS": "9040 Jackson Avenue", "CITY": "Tacoma", "ZIP": 98431, "ZIP4": "5000", "PHONE": "(253) 968-1110", "FAX": "(253) 968-0366", "ACUTE": "Yes", "ICU": "Yes", "CAH": "No", "Heli": "Yes", "Weblink": "http://www.mamc.amedd.army.mil", "Beds_Total": 240, "Beds_Total_ICU": 60, "Updated": "2020-12-02T14:44:07", "Beds_Psychiatric": 0 }, "geometry": { "type": "Point", "coordinates": [ -13642456.313208300620317, 5959829.818952630273998 ] } },
{ "type": "Feature", "properties": { "X": -13611737.4402095, "Y": 6189786.2733448297, "OBJECTID": 3, "NAME": "PeaceHealth United General Medical Center", "LINK": 3, "ADDRESS": "2000 Hospital Drive", "CITY": "Sedro-Woolley", "ZIP": 98284, "ZIP4": "4327", "PHONE": "(360) 856-6021", "FAX": "(360)856-7204", "ACUTE": "Yes", "ICU": "Yes", "CAH": "Yes", "Heli": "Yes", "Weblink": "http://www.peacehealth.org/united-general", "Beds_Total": 25, "Beds_Total_ICU": 3, "Updated": "2020-12-02T14:44:07", "Beds_Psychiatric": 0 }, "geometry": { "type": "Point", "coordinates": [ -13611737.440209500491619, 6189786.273344829678535 ] } },
{ "type": "Feature", "properties": { "X": -13307858.385464, "Y": 6173084.9432254098, "OBJECTID": 4, "NAME": "Mid-Valley Hospital ", "LINK": 5, "ADDRESS": "810 Jasmine", "CITY": "Omak", "ZIP": 98841, "ZIP4": " ", "PHONE": "(509) 826-1760", "FAX": "(509) 826-7379", "ACUTE": "Yes", "ICU": "No", "CAH": "Yes", "Heli": "Yes", "Weblink": "http://www.mvhealth.org", "Beds_Total": 25, "Beds_Total_ICU": 0, "Updated": "2020-12-02T14:44:07", "Beds_Psychiatric": 0 }, "geometry": { "type": "Point", "coordinates": [ -13307858.385464, 6173084.943225409835577 ] } },
{ "type": "Feature", "properties": { "X": -13630868.476889299, "Y": 5982318.8977181697, "OBJECTID": 5, "NAME": "Franciscan Health St Joseph Medical Center ", "LINK": 6, "ADDRESS": "1717 South \"J\" St", "CITY": "Tacoma", "ZIP": 98405, "ZIP4": "4944", "PHONE": "(253) 426-4101", "FAX": "(253) 426-6880", "ACUTE": "Yes", "ICU": "Yes", "CAH": "No", "Heli": "Yes", "Weblink": "http://www.chifranciscan.org/St-Joseph-Medical-Center/", "Beds_Total": 366, "Beds_Total_ICU": 48, "Updated": "2020-12-02T14:44:07", "Beds_Psychiatric": 23 }, "geometry": { "type": "Point", "coordinates": [ -13630868.476889299228787, 5982318.897718169726431 ] } },
{ "type": "Feature", "properties": { "X": -13705033.981946301, "Y": 5979023.4735031398, "OBJECTID": 6, "NAME": "Mason General Hospital ", "LINK": 7, "ADDRESS": "901 Mountain View Drive", "CITY": "Shelton", "ZIP": 98584, "ZIP4": "2057", "PHONE": "(360) 426-1611", "FAX": "(360) 427-1921", "ACUTE": "Yes", "ICU": "Yes", "CAH": "Yes", "Heli": "Yes", "Weblink": "http://www.masongeneral.com", "Beds_Total": 25, "Beds_Total_ICU": 10, "Updated": "2020-12-02T14:44:07", "Beds_Psychiatric": 0 }, "geometry": { "type": "Point", "coordinates": [ -13705033.981946300715208, 5979023.473503139801323 ] } },
{ "type": "Feature", "properties": { "X": -13612186.784990599, "Y": 5869848.0763854003, "OBJECTID": 7, "NAME": "Arbor Health - Morton General Hospital", "LINK": 8, "ADDRESS": "521 Adams St", "CITY": "Morton", "ZIP": 98356, "ZIP4": "0019", "PHONE": "(360) 496-5112", "FAX": "(360) 496-3511", "ACUTE": "Yes", "ICU": "No", "CAH": "Yes", "Heli": "Yes", "Weblink": "http://www.mortongeneral.org", "Beds_Total": 25, "Beds_Total_ICU": 0, "Updated": "2020-12-02T14:44:07", "Beds_Psychiatric": 0 }, "geometry": { "type": "Point", "coordinates": [ -13612186.784990599378943, 5869848.076385400258005 ] } },
{ "type": "Feature", "properties": { "X": -13568256.894419201, "Y": 6026164.4200345902, "OBJECTID": 8, "NAME": "Snoqualmie Valley Hospital", "LINK": 9, "ADDRESS": "9801 Frontier Avenue SE", "CITY": "Snoqualmie", "ZIP": 98065, "ZIP4": "2021", "PHONE": "(425) 831-2300", "FAX": "(425) 831-1994", "ACUTE": "Yes", "ICU": "No", "CAH": "Yes", "Heli": "Yes", "Weblink": "http://www.snoqualmiehospital.org", "Beds_Total": 25, "Beds_Total_ICU": 0, "Updated": "2020-12-02T14:44:07", "Beds_Psychiatric": 0 }, "geometry": { "type": "Point", "coordinates": [ -13568256.894419200718403, 6026164.420034590177238 ] } },
{ "type": "Feature", "properties": { "X": -13657962.0431621, "Y": 6039739.42956308, "OBJECTID": 9, "NAME": "Naval Hospital", "LINK": 10, "ADDRESS": "One Boone Road", "CITY": "Bremerton", "ZIP": 98312, "ZIP4": "1898", "PHONE": "(360) 475-4232", "FAX": "(360) 475-4476", "ACUTE": "Yes", "ICU": "Yes", "CAH": "No", "Heli": "Yes", "Weblink": "http://www.med.navy.mil/sites/nhbrem", "Beds_Total": 25, "Beds_Total_ICU": 6, "Updated": "2020-12-02T14:44:07", "Beds_Psychiatric": 0 }, "geometry": { "type": "Point", "coordinates": [ -13657962.043162100017071, 6039739.429563079960644 ] } },
{ "type": "Feature", "properties": { "X": -13175608.320195099, "Y": 5788935.3484779801, "OBJECTID": 10, "NAME": "Veterans Affairs Medical Center", "LINK": 11, "ADDRESS": "77 Wainwright Drive", "CITY": "Walla Walla", "ZIP": 99362, "ZIP4": "3975", "PHONE": "(509) 525-5200", "FAX": "(509) 527-3452", "ACUTE": "No", "ICU": "No", "CAH": "No", "Heli": "No", "Weblink": "http://www.wallawalla.va.gov/", "Beds_Total": 102, "Beds_Total_ICU": 0, "Updated": "2020-12-02T14:44:07", "Beds_Psychiatric": 0 }, "geometry": { "type": "Point", "coordinates": [ -13175608.320195099338889, 5788935.34847798012197 ] } },
{ "type": "Feature", "properties": { "X": -13359408.9682502, "Y": 6081102.0399680901, "OBJECTID": 11, "NAME": "Lake Chelan Community Hospital ", "LINK": 12, "ADDRESS": "503 Highland Ave E", "CITY": "Chelan", "ZIP": 98816, "ZIP4": "0908", "PHONE": "(509) 682-2531", "FAX": "(509) 682-3475", "ACUTE": "Yes", "ICU": "No", "CAH": "Yes", "Heli": "Yes", "Weblink": "http://www.lakechelancommunityhospital.com", "Beds_Total": 25, "Beds_Total_ICU": 0, "Updated": "2020-12-02T14:44:07", "Beds_Psychiatric": 0 }, "geometry": { "type": "Point", "coordinates": [ -13359408.968250200152397, 6081102.039968090131879 ] } },
{ "type": "Feature", "properties": { "X": -13295858.74364, "Y": 6225291.1898907702, "OBJECTID": 12, "NAME": "North Valley Hospital ", "LINK": 13, "ADDRESS": "203 South Western Avenue", "CITY": "Tonasket", "ZIP": 98855, "ZIP4": "0488", "PHONE": "(509) 486-2151", "FAX": "(509) 486-3119", "ACUTE": "Yes", "ICU": "No", "CAH": "Yes", "Heli": "Yes", "Weblink": "http://www.nvhospital.org", "Beds_Total": 25, "Beds_Total_ICU": 0, "Updated": "2020-12-02T14:44:07", "Beds_Psychiatric": 0 }, "geometry": { "type": "Point", "coordinates": [ -13295858.74364, 6225291.189890770241618 ] } },
{ "type": "Feature", "properties": { "X": -13808362.5003499, "Y": 5830398.0190922599, "OBJECTID": 13, "NAME": "Ocean Beach Hospital", "LINK": 14, "ADDRESS": "174 1st Avenue North", "CITY": "Ilwaco", "ZIP": 98624, "ZIP4": "0258", "PHONE": "(360) 642-3181", "FAX": "(360) 642-6309", "ACUTE": "Yes", "ICU": "No", "CAH": "Yes", "Heli": "Yes", "Weblink": "http://www.oceanbeachhospital.com", "Beds_Total": 25, "Beds_Total_ICU": 0, "Updated": "2020-12-02T14:44:07", "Beds_Psychiatric": 0 }, "geometry": { "type": "Point", "coordinates": [ -13808362.500349899753928, 5830398.019092259928584 ] } },
{ "type": "Feature", "properties": { "X": -13782721.212506101, "Y": 5887210.4692977499, "OBJECTID": 14, "NAME": "Willapa Harbor Hospital", "LINK": 15, "ADDRESS": "800 Alder Street", "CITY": "South Bend", "ZIP": 98586, "ZIP4": "0438", "PHONE": "(360) 875-5526", "FAX": "(360) 875-5109", "ACUTE": "Yes", "ICU": "No", "CAH": "Yes", "Heli": "Yes", "Weblink": "http://www.willapaharborhospital.com", "Beds_Total": 25, "Beds_Total_ICU": 0, "Updated": "2020-12-02T14:44:07", "Beds_Psychiatric": 0 }, "geometry": { "type": "Point", "coordinates": [ -13782721.212506100535393, 5887210.469297749921679 ] } },
{ "type": "Feature", "properties": { "X": -13066242.0910258, "Y": 5920706.3432294, "OBJECTID": 15, "NAME": "Whitman Hospital and Medical Center", "LINK": 16, "ADDRESS": "1200 West Fairview", "CITY": "Colfax", "ZIP": 99111, "ZIP4": "9579", "PHONE": "(509) 397-3435", "FAX": "(509) 397-2563", "ACUTE": "Yes", "ICU": "No", "CAH": "Yes", "Heli": "Yes", "Weblink": "http://www.whitmanhospital.com", "Beds_Total": 25, "Beds_Total_ICU": 0, "Updated": "2020-12-02T14:44:07", "Beds_Psychiatric": 0 }, "geometry": { "type": "Point", "coordinates": [ -13066242.091025799512863, 5920706.343229399994016 ] } },
{ "type": "Feature", "properties": { "X": -13522037.6211778, "Y": 5735971.3671945296, "OBJECTID": 16, "NAME": "Skyline Hospital", "LINK": 17, "ADDRESS": "211 Skyline Dr", "CITY": "White Salmon", "ZIP": 98672, "ZIP4": "0099", "PHONE": "(509) 493-1101", "FAX": "(509) 493-4607", "ACUTE": "Yes", "ICU": "Yes", "CAH": "Yes", "Heli": "Yes", "Weblink": "http://www.myskylinehealth.org", "Beds_Total": 25, "Beds_Total_ICU": 2, "Updated": "2020-12-02T14:44:07", "Beds_Psychiatric": 0 }, "geometry": { "type": "Point", "coordinates": [ -13522037.621177799999714, 5735971.367194529622793 ] } },
{ "type": "Feature", "properties": { "X": -13645375.7617236, "Y": 5963859.3230990404, "OBJECTID": 17, "NAME": "VA Puget Sound Health Care System - Tacoma", "LINK": 18, "ADDRESS": "9900 Veterens Drive SW", "CITY": "Tacoma", "ZIP": 98433, "ZIP4": " ", "PHONE": "(253) 582-8440", "FAX": "(253) 396-6239", "ACUTE": "No", "ICU": "No", "CAH": "No", "Heli": "No", "Weblink": "https://www.pugetsound.va.gov/", "Beds_Total": 459, "Beds_Total_ICU": 0, "Updated": "2020-12-02T14:44:07", "Beds_Psychiatric": 0 }, "geometry": { "type": "Point", "coordinates": [ -13645375.761723600327969, 5963859.323099040426314 ] } },
{ "type": "Feature", "properties": { "X": -13069656.846259801, "Y": 6058703.4319440601, "OBJECTID": 18, "NAME": "Providence Holy Family Hospital ", "LINK": 19, "ADDRESS": "5633 N. Lidgerwood", "CITY": "Spokane", "ZIP": 99204, "ZIP4": null, "PHONE": "(509) 482-0111", "FAX": "(509) 482-2456", "ACUTE": "Yes", "ICU": "Yes", "CAH": "No", "Heli": "Yes", "Weblink": "http://washington.providence.org/hospitals/holy-family-hospital", "Beds_Total": 197, "Beds_Total_ICU": 14, "Updated": "2020-12-02T14:44:07", "Beds_Psychiatric": 0 }, "geometry": { "type": "Point", "coordinates": [ -13069656.846259800717235, 6058703.431944060139358 ] } },
{ "type": "Feature", "properties": { "X": -13211675.964970799, "Y": 5996301.1133141899, "OBJECTID": 19, "NAME": "Odessa Memorial Healthcare Center", "LINK": 20, "ADDRESS": "502 E. Amende Dr", "CITY": "Odessa", "ZIP": 99159, "ZIP4": "0368", "PHONE": "(509) 982-2611", "FAX": "(509) 982-2616", "ACUTE": "Yes", "ICU": "No", "CAH": "Yes", "Heli": "Yes", "Weblink": "http://www.omhc.org", "Beds_Total": 25, "Beds_Total_ICU": 0, "Updated": "2020-12-02T14:44:07", "Beds_Psychiatric": 0 }, "geometry": { "type": "Point", "coordinates": [ -13211675.964970799162984, 5996301.113314189948142 ] } },
{ "type": "Feature", "properties": { "X": -13264303.030668899, "Y": 5914436.2758151405, "OBJECTID": 20, "NAME": "Othello Community Hospital ", "LINK": 21, "ADDRESS": "315 N. 14th Ave", "CITY": "Othello", "ZIP": 99344, "ZIP4": "1297", "PHONE": "(509) 488-2636", "FAX": "(509) 331-2617", "ACUTE": "Yes", "ICU": "No", "CAH": "Yes", "Heli": "Yes", "Weblink": "http://www.othellocommunityhospital.org", "Beds_Total": 25, "Beds_Total_ICU": 0, "Updated": "2020-12-02T14:44:07", "Beds_Psychiatric": 0 }, "geometry": { "type": "Point", "coordinates": [ -13264303.030668899416924, 5914436.275815140455961 ] } },
{ "type": "Feature", "properties": { "X": -13685812.917817101, "Y": 5801317.7590883002, "OBJECTID": 21, "NAME": "PeaceHealth St. John Medical Center ", "LINK": 22, "ADDRESS": "1615 Delaware St", "CITY": "Longview", "ZIP": 98632, "ZIP4": "3002", "PHONE": "(360) 414-2000", "FAX": "(360) 636-4952", "ACUTE": "Yes", "ICU": "Yes", "CAH": "No", "Heli": "Yes", "Weblink": "http://www.peacehealth.org/st-john", "Beds_Total": 346, "Beds_Total_ICU": 16, "Updated": "2020-12-02T14:44:07", "Beds_Psychiatric": 0 }, "geometry": { "type": "Point", "coordinates": [ -13685812.91781710088253, 5801317.759088300168514 ] } },
{ "type": "Feature", "properties": { "X": -13617050.188932599, "Y": 6176657.16016775, "OBJECTID": 22, "NAME": "Skagit Valley Hospital ", "LINK": 23, "ADDRESS": "1415 E. Kincaid St", "CITY": "Mount Vernon", "ZIP": 98273, "ZIP4": "1376", "PHONE": "(360) 424-4111", "FAX": "(360) 814-2416", "ACUTE": "Yes", "ICU": "Yes", "CAH": "No", "Heli": "Yes", "Weblink": "http://www.skagitregionalhealth.org/locations/skagit-valley-hospital", "Beds_Total": 173, "Beds_Total_ICU": 16, "Updated": "2020-12-02T14:44:07", "Beds_Psychiatric": 0 }, "geometry": { "type": "Point", "coordinates": [ -13617050.188932599499822, 6176657.160167749971151 ] } },
{ "type": "Feature", "properties": { "X": -13103506.7563984, "Y": 6153189.5693094004, "OBJECTID": 23, "NAME": "Providence St. Joseph's Hospital", "LINK": 24, "ADDRESS": "500 East Webster Ave", "CITY": "Chewelah", "ZIP": 99109, "ZIP4": "0197", "PHONE": "(509) 935-8211", "FAX": "(509) 935-5205", "ACUTE": "Yes", "ICU": "No", "CAH": "Yes", "Heli": "Yes", "Weblink": "http://washington.providence.org/hospitals/st-josephs-hospital", "Beds_Total": 25, "Beds_Total_ICU": 0, "Updated": "2020-12-02T14:44:07", "Beds_Psychiatric": 0 }, "geometry": { "type": "Point", "coordinates": [ -13103506.7563984002918, 6153189.569309400394559 ] } },
{ "type": "Feature", "properties": { "X": -13394075.848302601, "Y": 6008696.6869049501, "OBJECTID": 24, "NAME": "Confluence Health - Central Washington Hospital", "LINK": 26, "ADDRESS": "1201 South Miller Street", "CITY": "Wenatchee", "ZIP": 98807, "ZIP4": "1887", "PHONE": "(509) 662-1511", "FAX": "(509) 662-6770", "ACUTE": "Yes", "ICU": "Yes", "CAH": "No", "Heli": "Yes", "Weblink": "http://www.confluencehealth.org", "Beds_Total": 198, "Beds_Total_ICU": 20, "Updated": "2020-12-02T14:44:07", "Beds_Psychiatric": 0 }, "geometry": { "type": "Point", "coordinates": [ -13394075.848302600905299, 6008696.686904950067401 ] } },
{ "type": "Feature", "properties": { "X": -13177098.135753799, "Y": 5961882.56341423, "OBJECTID": 25, "NAME": "East Adams Rural Healthcare", "LINK": 27, "ADDRESS": "903 South Adams St", "CITY": "Ritzville", "ZIP": 99169, "ZIP4": "2298", "PHONE": "(509) 659-1200", "FAX": "(509) 659-1252", "ACUTE": "Yes", "ICU": "No", "CAH": "Yes", "Heli": "Yes", "Weblink": "http://www.earh.com", "Beds_Total": 25, "Beds_Total_ICU": 0, "Updated": "2020-12-02T14:44:07", "Beds_Psychiatric": 0 }, "geometry": { "type": "Point", "coordinates": [ -13177098.13575379922986, 5961882.563414230011404 ] } },
{ "type": "Feature", "properties": { "X": -13260290.5457868, "Y": 5812336.1363576204, "OBJECTID": 26, "NAME": "Trios Health", "LINK": 28, "ADDRESS": "900 S. Auburn St", "CITY": "Kennewick", "ZIP": 99336, "ZIP4": "6128", "PHONE": "(509) 221-7000", "FAX": null, "ACUTE": "Yes", "ICU": "Yes", "CAH": "No", "Heli": "Yes", "Weblink": "http://www.trioshealth.org", "Beds_Total": 124, "Beds_Total_ICU": 14, "Updated": "2020-12-02T14:44:07", "Beds_Psychiatric": 0 }, "geometry": { "type": "Point", "coordinates": [ -13260290.545786799862981, 5812336.136357620358467 ] } },
{ "type": "Feature", "properties": { "X": -13418217.241828401, "Y": 5939967.7345808204, "OBJECTID": 27, "NAME": "Kittitas Valley Healthcare", "LINK": 29, "ADDRESS": "603 Chestnut St S", "CITY": "Ellensburg", "ZIP": 98926, "ZIP4": "3875", "PHONE": "(509) 962-9841", "FAX": "(509) 962-7351", "ACUTE": "Yes", "ICU": "Yes", "CAH": "Yes", "Heli": "Yes", "Weblink": "http://www.kvhealthcare.org", "Beds_Total": 25, "Beds_Total_ICU": 20, "Updated": "2020-12-02T14:44:07", "Beds_Psychiatric": 0 }, "geometry": { "type": "Point", "coordinates": [ -13418217.24182840064168, 5939967.734580820426345 ] } },
{ "type": "Feature", "properties": { "X": -13448630.8033204, "Y": 5751579.66959773, "OBJECTID": 28, "NAME": "Klickitat Valley Health", "LINK": 30, "ADDRESS": "310 South Roosevelt Ave", "CITY": "Goldendale", "ZIP": 98620, "ZIP4": "9201", "PHONE": "(509) 773-4022", "FAX": "(509) 773-1003", "ACUTE": "Yes", "ICU": "No", "CAH": "Yes", "Heli": "Yes", "Weblink": "http://www.kvhealth.net", "Beds_Total": 25, "Beds_Total_ICU": 0, "Updated": "2020-12-02T14:44:07", "Beds_Psychiatric": 0 }, "geometry": { "type": "Point", "coordinates": [ -13448630.803320400416851, 5751579.66959773004055 ] } },
{ "type": "Feature", "properties": { "X": -13257637.7431168, "Y": 5818092.56072619, "OBJECTID": 29, "NAME": "Lourdes Medical Center", "LINK": 31, "ADDRESS": "520 N. Fourth Ave", "CITY": "Pasco", "ZIP": 99301, "ZIP4": "5257", "PHONE": "(509) 547-7704", "FAX": "(509) 546-2291", "ACUTE": "Yes", "ICU": "Yes", "CAH": "Yes", "Heli": "Yes", "Weblink": "http://www.lourdeshealth.net", "Beds_Total": 25, "Beds_Total_ICU": 6, "Updated": "2020-12-02T14:44:07", "Beds_Psychiatric": 0 }, "geometry": { "type": "Point", "coordinates": [ -13257637.743116799741983, 5818092.560726189985871 ] } },
{ "type": "Feature", "properties": { "X": -13043279.1174298, "Y": 5895273.4894161001, "OBJECTID": 30, "NAME": "Pullman Regional Hospital", "LINK": 32, "ADDRESS": "835 SE Bishop Boulevard", "CITY": "Pullman", "ZIP": 99163, "ZIP4": "5512", "PHONE": "(509) 332-2541", "FAX": "(509) 332-4242", "ACUTE": "Yes", "ICU": "Yes", "CAH": "Yes", "Heli": "Yes", "Weblink": "http://www.pullmanregional.org", "Beds_Total": 25, "Beds_Total_ICU": 4, "Updated": "2020-12-02T14:44:07", "Beds_Psychiatric": 0 }, "geometry": { "type": "Point", "coordinates": [ -13043279.117429800331593, 5895273.489416100084782 ] } },
{ "type": "Feature", "properties": { "X": -13173904.426222101, "Y": 5790326.8588835299, "OBJECTID": 31, "NAME": "Providence St. Mary Medical Center ", "LINK": 33, "ADDRESS": "401 W. Poplar St", "CITY": "Walla Walla", "ZIP": 99362, "ZIP4": "0312", "PHONE": "(509) 525-3320", "FAX": "(509) 522-5950", "ACUTE": "Yes", "ICU": "Yes", "CAH": "No", "Heli": "Yes", "Weblink": "http://washington.providence.org/hospitals/st-mary", "Beds_Total": 142, "Beds_Total_ICU": 14, "Updated": "2020-12-02T14:44:07", "Beds_Psychiatric": 0 }, "geometry": { "type": "Point", "coordinates": [ -13173904.42622210085392, 5790326.858883529901505 ] } },
{ "type": "Feature", "properties": { "X": -13071507.844516801, "Y": 6049147.0158994002, "OBJECTID": 32, "NAME": "Multicare Deaconess Hospital ", "LINK": 34, "ADDRESS": "800 West Fifth Avenue", "CITY": "Spokane", "ZIP": 99204, "ZIP4": " ", "PHONE": "(509) 458-5800", "FAX": "(509) 473-2782", "ACUTE": "Yes", "ICU": "Yes", "CAH": "No", "Heli": "Yes", "Weblink": "https://www.multicare.org/deaconess-hospital/", "Beds_Total": 388, "Beds_Total_ICU": 18, "Updated": "2020-12-02T14:44:07", "Beds_Psychiatric": 0 }, "geometry": { "type": "Point", "coordinates": [ -13071507.844516800716519, 6049147.015899400226772 ] } },
{ "type": "Feature", "properties": { "X": -13070359.4716042, "Y": 6048642.6376517396, "OBJECTID": 33, "NAME": "Providence Sacred Heart Medical Center & Childrens Hospital", "LINK": 35, "ADDRESS": "101 West 8th Ave", "CITY": "Spokane", "ZIP": 99220, "ZIP4": "4045", "PHONE": "(509) 474-3131", "FAX": "(509) 474-3351", "ACUTE": "Yes", "ICU": "Yes", "CAH": "No", "Heli": "Yes", "Weblink": "http://washington.providence.org/hospitals/sacred-heart-medical-center-and-childrens-hospital", "Beds_Total": 691, "Beds_Total_ICU": 97, "Updated": "2020-12-02T14:44:07", "Beds_Psychiatric": 44 }, "geometry": { "type": "Point", "coordinates": [ -13070359.471604200080037, 6048642.637651739642024 ] } },
{ "type": "Feature", "properties": { "X": -13071765.919234, "Y": 6048972.6971929502, "OBJECTID": 34, "NAME": "Shriners Hospital for Children", "LINK": 36, "ADDRESS": "911 West Fifth Avenue", "CITY": "Spokane", "ZIP": 99204, "ZIP4": "7844", "PHONE": "(509) 455-7844", "FAX": " ", "ACUTE": "Yes", "ICU": "No", "CAH": "No", "Heli": "No", "Weblink": "http://www.shrinershospitalsforchildren.org/Locations/spokane", "Beds_Total": 69, "Beds_Total_ICU": 0, "Updated": "2020-12-02T14:44:07", "Beds_Psychiatric": 0 }, "geometry": { "type": "Point", "coordinates": [ -13071765.919234, 6048972.697192950174212 ] } },
{ "type": "Feature", "properties": { "X": -13645624.1062344, "Y": 5720367.9762651296, "OBJECTID": 35, "NAME": "PeaceHealth Southwest Medical Center ", "LINK": 37, "ADDRESS": "400 NE Mother Joseph Place", "CITY": "Vancouver", "ZIP": 98668, "ZIP4": "1600", "PHONE": "(360) 256-2000", "FAX": "(360) 514-6670", "ACUTE": "Yes", "ICU": "Yes", "CAH": "No", "Heli": "Yes", "Weblink": "http://www.peacehealth.org/southwest", "Beds_Total": 450, "Beds_Total_ICU": 48, "Updated": "2020-12-02T14:44:07", "Beds_Psychiatric": 16 }, "geometry": { "type": "Point", "coordinates": [ -13645624.106234399601817, 5720367.976265129633248 ] } },
{ "type": "Feature", "properties": { "X": -13616780.572530299, "Y": 6041995.2015789496, "OBJECTID": 36, "NAME": "Swedish First Hill ", "LINK": 38, "ADDRESS": "747 Broadway", "CITY": "Seattle", "ZIP": 98122, "ZIP4": "4307", "PHONE": "(206) 386-6000", "FAX": "(206) 386-2277", "ACUTE": "Yes", "ICU": "Yes", "CAH": "No", "Heli": "No", "Weblink": "http://www.swedish.org/locations/first-hill-campus", "Beds_Total": 637, "Beds_Total_ICU": 41, "Updated": "2020-12-02T14:44:07", "Beds_Psychiatric": 0 }, "geometry": { "type": "Point", "coordinates": [ -13616780.572530299425125, 6041995.201578949578106 ] } },
{ "type": "Feature", "properties": { "X": -13050592.9268966, "Y": 6052255.4859172003, "OBJECTID": 37, "NAME": "Multicare Valley Hospital ", "LINK": 39, "ADDRESS": "12606 Mission Ave E", "CITY": "Spokane Valley", "ZIP": 99216, "ZIP4": "1090", "PHONE": "(509) 924-6650", "FAX": "(509) 473-5824", "ACUTE": "Yes", "ICU": "Yes", "CAH": "No", "Heli": "Yes", "Weblink": "https://www.multicare.org/valley-hospital/", "Beds_Total": 123, "Beds_Total_ICU": 10, "Updated": "2020-12-02T14:44:07", "Beds_Psychiatric": 0 }, "geometry": { "type": "Point", "coordinates": [ -13050592.926896600052714, 6052255.48591720033437 ] } },
{ "type": "Feature", "properties": { "X": -13077557.2934241, "Y": 6057498.8951398004, "OBJECTID": 38, "NAME": "Veterans Affairs Medical Center", "LINK": 41, "ADDRESS": "N. 4815 Assembly St.", "CITY": "Spokane", "ZIP": 99205, "ZIP4": "6197", "PHONE": "(509) 328 4521", "FAX": "(509) 327-0222", "ACUTE": "No", "ICU": "Yes", "CAH": "No", "Heli": "No", "Weblink": "http://www.spokane.va.gov/", "Beds_Total": 20, "Beds_Total_ICU": 4, "Updated": "2020-12-02T14:44:07", "Beds_Psychiatric": 0 }, "geometry": { "type": "Point", "coordinates": [ -13077557.293424099683762, 6057498.895139800384641 ] } },
{ "type": "Feature", "properties": { "X": -13069919.549528301, "Y": 6048659.5531720603, "OBJECTID": 39, "NAME": "St. Luke's Rehabilitation Institute", "LINK": 42, "ADDRESS": "711 South Cowley St", "CITY": "Spokane", "ZIP": 99202, "ZIP4": "1330", "PHONE": "(509) 473-6000", "FAX": "(509) 473-6978", "ACUTE": "Yes", "ICU": "No", "CAH": "No", "Heli": "No", "Weblink": "http://www.wsha.org/hospitalDetail.cfm?HID=145", "Beds_Total": 102, "Beds_Total_ICU": 0, "Updated": "2020-12-02T14:44:07", "Beds_Psychiatric": 0 }, "geometry": { "type": "Point", "coordinates": [ -13069919.549528300762177, 6048659.553172060288489 ] } },
{ "type": "Feature", "properties": { "X": -13606474.0187595, "Y": 5992643.2013878403, "OBJECTID": 40, "NAME": "MultiCare Auburn Medical Center", "LINK": 43, "ADDRESS": "202 North Division St", "CITY": "Auburn", "ZIP": 98002, "ZIP4": "4932", "PHONE": "(253) 833-7711", "FAX": "(253) 939-2376", "ACUTE": "Yes", "ICU": "Yes", "CAH": "No", "Heli": "Yes", "Weblink": "http://www.multicare.org/auburnmedical", "Beds_Total": 195, "Beds_Total_ICU": 17, "Updated": "2020-12-02T14:44:07", "Beds_Psychiatric": 58 }, "geometry": { "type": "Point", "coordinates": [ -13606474.018759500235319, 5992643.20138784032315 ] } },
{ "type": "Feature", "properties": { "X": -13612379.2116713, "Y": 6050900.6821850203, "OBJECTID": 41, "NAME": "Seattle Children's", "LINK": 44, "ADDRESS": "4800 Sandpoint Way NE", "CITY": "Seattle", "ZIP": 98105, "ZIP4": "0317", "PHONE": "(206) 526-2000", "FAX": "(206) 526-3830", "ACUTE": "Yes", "ICU": "Yes", "CAH": "No", "Heli": "No", "Weblink": "http://www.seattlechildrens.org", "Beds_Total": 407, "Beds_Total_ICU": 53, "Updated": "2020-12-02T14:44:07", "Beds_Psychiatric": 41 }, "geometry": { "type": "Point", "coordinates": [ -13612379.21167130023241, 6050900.682185020297766 ] } },
{ "type": "Feature", "properties": { "X": -13393633.575934101, "Y": 5839977.8359832801, "OBJECTID": 42, "NAME": "Astria Toppenish Hospital ", "LINK": 45, "ADDRESS": "502 4th Ave W", "CITY": "Toppenish", "ZIP": 98948, "ZIP4": "0672", "PHONE": "(509) 865-3105", "FAX": "(509) 865-1519", "ACUTE": "Yes", "ICU": "Yes", "CAH": "No", "Heli": "Yes", "Weblink": "https://www.astria.health/locations/astria-toppenish-hospital", "Beds_Total": 40, "Beds_Total_ICU": 3, "Updated": "2020-12-02T14:44:07", "Beds_Psychiatric": 15 }, "geometry": { "type": "Point", "coordinates": [ -13393633.57593410089612, 5839977.835983280092478 ] } },
{ "type": "Feature", "properties": { "X": -13615404.612766899, "Y": 6048965.3804818001, "OBJECTID": 43, "NAME": "UW Medicine/University of Washington Medical Center ", "LINK": 47, "ADDRESS": "1959 NE Pacific St", "CITY": "Seattle", "ZIP": 98195, "ZIP4": "6028", "PHONE": "(206) 598-3300", "FAX": "(206) 598-6292", "ACUTE": "Yes", "ICU": "Yes", "CAH": "No", "Heli": "No", "Weblink": "http://www.uwmedicine.org/uw-medical-center", "Beds_Total": 473, "Beds_Total_ICU": 86, "Updated": "2020-12-02T14:44:07", "Beds_Psychiatric": 27 }, "geometry": { "type": "Point", "coordinates": [ -13615404.612766899168491, 6048965.380481800064445 ] } },
{ "type": "Feature", "properties": { "X": -13594218.8671597, "Y": 6138342.0617215401, "OBJECTID": 44, "NAME": "Cascade Valley Hospital ", "LINK": 49, "ADDRESS": "330 S. Stillaguamish Ave", "CITY": "Arlington", "ZIP": 98223, "ZIP4": "1642", "PHONE": "(360) 435-2133", "FAX": "(360) 435-0513", "ACUTE": "Yes", "ICU": "Yes", "CAH": "No", "Heli": "Yes", "Weblink": "http://www.cascadevalley.org", "Beds_Total": 48, "Beds_Total_ICU": 6, "Updated": "2020-12-02T14:44:07", "Beds_Psychiatric": 0 }, "geometry": { "type": "Point", "coordinates": [ -13594218.867159700021148, 6138342.061721540056169 ] } },
{ "type": "Feature", "properties": { "X": -13603877.3492266, "Y": 6106837.1589181498, "OBJECTID": 45, "NAME": "Providence Regional Medical Center Everett", "LINK": 50, "ADDRESS": "1700 13th Street", "CITY": "Everett", "ZIP": 98201, "ZIP4": " ", "PHONE": "(425) 261-2000", "FAX": "(425) 261-4051", "ACUTE": "Yes", "ICU": "Yes", "CAH": "No", "Heli": "Yes", "Weblink": "http://washington.providence.org/hospitals/regional-medical-center", "Beds_Total": 530, "Beds_Total_ICU": 48, "Updated": "2020-12-02T14:44:07", "Beds_Psychiatric": 0 }, "geometry": { "type": "Point", "coordinates": [ -13603877.349226599559188, 6106837.158918149769306 ] } },
{ "type": "Feature", "properties": { "X": -13600837.4037198, "Y": 6059718.7150567695, "OBJECTID": 46, "NAME": "EvergreenHealth Medical Center ", "LINK": 51, "ADDRESS": "12040 NE 128th St", "CITY": "Kirkland", "ZIP": 98034, "ZIP4": "9917", "PHONE": "(425) 899-2100", "FAX": "(425) 899-2624", "ACUTE": "Yes", "ICU": "Yes", "CAH": "No", "Heli": "Yes", "Weblink": "http://www.evergreenhealth.com", "Beds_Total": 318, "Beds_Total_ICU": 20, "Updated": "2020-12-02T14:44:07", "Beds_Psychiatric": 0 }, "geometry": { "type": "Point", "coordinates": [ -13600837.403719799593091, 6059718.715056769549847 ] } },
{ "type": "Feature", "properties": { "X": -13217119.090805899, "Y": 6216193.52418938, "OBJECTID": 47, "NAME": "Ferry County Memorial Hospital", "LINK": 52, "ADDRESS": "36 North Klondike Road", "CITY": "Republic", "ZIP": 99166, "ZIP4": "9701", "PHONE": "(509) 775-3333", "FAX": "(509) 775-3866", "ACUTE": "Yes", "ICU": "No", "CAH": "Yes", "Heli": "Yes", "Weblink": "http://www.fcphd.org", "Beds_Total": 25, "Beds_Total_ICU": 0, "Updated": "2020-12-02T14:44:07", "Beds_Psychiatric": 0 }, "geometry": { "type": "Point", "coordinates": [ -13217119.090805899351835, 6216193.524189379997551 ] } },
{ "type": "Feature", "properties": { "X": -13604796.389813401, "Y": 6014648.5796050802, "OBJECTID": 48, "NAME": "UW Medicine/Valley Medical Center", "LINK": 53, "ADDRESS": "400 S. 43rd St", "CITY": "Renton", "ZIP": 98055, "ZIP4": "5784", "PHONE": "(425) 228-3450", "FAX": "(425) 656-4202", "ACUTE": "Yes", "ICU": "Yes", "CAH": "No", "Heli": "Yes", "Weblink": "http://www.uwmedicine.org/valley-medical-center", "Beds_Total": 321, "Beds_Total_ICU": 30, "Updated": "2020-12-02T14:44:07", "Beds_Psychiatric": 0 }, "geometry": { "type": "Point", "coordinates": [ -13604796.389813400804996, 6014648.579605080187321 ] } },
{ "type": "Feature", "properties": { "X": -13621788.6239285, "Y": 6029795.7498048199, "OBJECTID": 49, "NAME": "Navos", "LINK": 54, "ADDRESS": "2600 SW Holden", "CITY": "Seattle", "ZIP": 98168, "ZIP4": " ", "PHONE": "(206) 933-7000", "FAX": "(206) 933-7218", "ACUTE": "No", "ICU": "No", "CAH": "No", "Heli": "No", "Weblink": "http://www.wsha.org/hospitalDetail.cfm?HID=143", "Beds_Total": 28, "Beds_Total_ICU": 0, "Updated": "2020-12-02T14:44:07", "Beds_Psychiatric": 70 }, "geometry": { "type": "Point", "coordinates": [ -13621788.623928500339389, 6029795.74980481993407 ] } },
{ "type": "Feature", "properties": { "X": -13618198.332688401, "Y": 6074179.2514248202, "OBJECTID": 50, "NAME": "Swedish Edmonds", "LINK": 55, "ADDRESS": "21601 76th Ave W", "CITY": "Edmonds", "ZIP": 98026, "ZIP4": "7506", "PHONE": "(425) 640-4000", "FAX": "(425) 640-4010", "ACUTE": "Yes", "ICU": "Yes", "CAH": "No", "Heli": "Yes", "Weblink": "http://www.swedish.org/locations/edmonds-campus", "Beds_Total": 186, "Beds_Total_ICU": 12, "Updated": "2020-12-02T14:44:07", "Beds_Psychiatric": 0 }, "geometry": { "type": "Point", "coordinates": [ -13618198.332688400521874, 6074179.251424820162356 ] } },
{ "type": "Feature", "properties": { "X": -13643955.2067836, "Y": 5971229.1592648998, "OBJECTID": 51, "NAME": "Western State Hospital", "LINK": 56, "ADDRESS": "9601 Steilacoom Boulevard Sw", "CITY": "Tacoma", "ZIP": 98498, "ZIP4": "0500", "PHONE": "(253) 582-8900", "FAX": "(253) 756-2879", "ACUTE": "No", "ICU": "No", "CAH": "No", "Heli": "No", "Weblink": "https://www.dshs.wa.gov/bhsia/division-state-hospitals/western-state-hospital-general-information", "Beds_Total": 771, "Beds_Total_ICU": 0, "Updated": "2020-12-02T14:44:07", "Beds_Psychiatric": 806 }, "geometry": { "type": "Point", "coordinates": [ -13643955.206783600151539, 5971229.159264899790287 ] } },
{ "type": "Feature", "properties": { "X": -13334141.695424899, "Y": 6124545.2971464097, "OBJECTID": 52, "NAME": "Three Rivers Hospital ", "LINK": 57, "ADDRESS": "507 Hospital Way", "CITY": "Brewster", "ZIP": 98812, "ZIP4": "0577", "PHONE": "(509) 689-2517", "FAX": "(509) 689-2086", "ACUTE": "Yes", "ICU": "No", "CAH": "Yes", "Heli": "Yes", "Weblink": "http://www.threerivershospital.net", "Beds_Total": 25, "Beds_Total_ICU": 0, "Updated": "2020-12-02T14:44:07", "Beds_Psychiatric": 0 }, "geometry": { "type": "Point", "coordinates": [ -13334141.695424899458885, 6124545.297146409749985 ] } },
{ "type": "Feature", "properties": { "X": -13656163.712669199, "Y": 6049740.4686159501, "OBJECTID": 53, "NAME": "St. Michael Medical Center Silverdale", "LINK": 58, "ADDRESS": "1800 NW Myhre Rd", "CITY": "Silverdale", "ZIP": 98383, "ZIP4": " ", "PHONE": "(360) 337-8800", "FAX": " ", "ACUTE": "Yes", "ICU": "No", "CAH": "No", "Heli": "No", "Weblink": "http://www.harrisonmedical.org/home/location/2", "Beds_Total": 68, "Beds_Total_ICU": 0, "Updated": "2020-12-02T14:44:07", "Beds_Psychiatric": 0 }, "geometry": { "type": "Point", "coordinates": [ -13656163.712669199332595, 6049740.468615950085223 ] } },
{ "type": "Feature", "properties": { "X": -13656810.1419899, "Y": 6163013.27471398, "OBJECTID": 54, "NAME": "Naval Hospital Oak Harbor", "LINK": 59, "ADDRESS": "3475 N. Saratoga St.", "CITY": "Oak Harbor", "ZIP": 98278, "ZIP4": "8800", "PHONE": "(360) 257-9500", "FAX": "(360) 257-9719", "ACUTE": "No", "ICU": "Yes", "CAH": "No", "Heli": "Yes", "Weblink": "http://www.med.navy.mil/sites/nhoh/Pages/default.aspx", "Beds_Total": 25, "Beds_Total_ICU": 2, "Updated": "2020-12-02T14:44:07", "Beds_Psychiatric": 0 }, "geometry": { "type": "Point", "coordinates": [ -13656810.141989899799228, 6163013.274713980033994 ] } },
{ "type": "Feature", "properties": { "X": -13247797.893144701, "Y": 6097248.2560118502, "OBJECTID": 55, "NAME": "Coulee Medical Center", "LINK": 60, "ADDRESS": "411 Fortuyn Rd", "CITY": "Grand Coulee", "ZIP": 99133, "ZIP4": "8718", "PHONE": "(509) 633-1753", "FAX": "(509) 633-0951", "ACUTE": "Yes", "ICU": "No", "CAH": "Yes", "Heli": "Yes", "Weblink": "http://www.cmccares.org", "Beds_Total": 25, "Beds_Total_ICU": 0, "Updated": "2020-12-02T14:44:07", "Beds_Psychiatric": 0 }, "geometry": { "type": "Point", "coordinates": [ -13247797.893144700676203, 6097248.256011850200593 ] } },
{ "type": "Feature", "properties": { "X": -13332072.739338599, "Y": 5813757.5105116097, "OBJECTID": 56, "NAME": "Prosser Memorial Health", "LINK": 61, "ADDRESS": "723 Memorial St", "CITY": "Prosser", "ZIP": 99350, "ZIP4": "1593", "PHONE": "(509) 786-2222", "FAX": "(509) 786-6683", "ACUTE": "Yes", "ICU": "No", "CAH": "Yes", "Heli": "Yes", "Weblink": "http://www.prosserhealth.org", "Beds_Total": 25, "Beds_Total_ICU": 0, "Updated": "2020-12-02T14:44:07", "Beds_Psychiatric": 0 }, "geometry": { "type": "Point", "coordinates": [ -13332072.739338599145412, 5813757.510511609725654 ] } },
{ "type": "Feature", "properties": { "X": -13690989.9289541, "Y": 5895116.2399402, "OBJECTID": 57, "NAME": "Providence Centralia Hospital ", "LINK": 62, "ADDRESS": "914 South Scheuber Road", "CITY": "Centralia", "ZIP": 98531, "ZIP4": "9027", "PHONE": "(360) 736-2803", "FAX": "(360) 330-8614", "ACUTE": "Yes", "ICU": "Yes", "CAH": "No", "Heli": "Yes", "Weblink": "http://washington.providence.org/hospitals/centralia-hospital", "Beds_Total": 128, "Beds_Total_ICU": 6, "Updated": "2020-12-02T14:44:07", "Beds_Psychiatric": 0 }, "geometry": { "type": "Point", "coordinates": [ -13690989.928954100236297, 5895116.239940200001001 ] } },
{ "type": "Feature", "properties": { "X": -13343663.8957109, "Y": 5979845.7032358302, "OBJECTID": 58, "NAME": "Quincy Valley Medical Center", "LINK": 63, "ADDRESS": "908 10th Ave SW", "CITY": "Quincy", "ZIP": 98848, "ZIP4": "1376", "PHONE": "(509) 787-3531", "FAX": "(509) 787-2016", "ACUTE": "Yes", "ICU": "No", "CAH": "Yes", "Heli": "Yes", "Weblink": "http://www.quincyhospital.org", "Beds_Total": 25, "Beds_Total_ICU": 0, "Updated": "2020-12-02T14:44:07", "Beds_Psychiatric": 0 }, "geometry": { "type": "Point", "coordinates": [ -13343663.895710900425911, 5979845.703235830180347 ] } },
{ "type": "Feature", "properties": { "X": -13394304.734897399, "Y": 6013126.41845016, "OBJECTID": 59, "NAME": "Confluence Health - Wenatchee Valley Hospital", "LINK": 65, "ADDRESS": "820 N. Chelan Avenue", "CITY": "Wenatchee", "ZIP": 98801, "ZIP4": " ", "PHONE": "(509) 665-5850", "FAX": "(509) 665-5864", "ACUTE": "Yes", "ICU": "No", "CAH": "No", "Heli": "No", "Weblink": "http://www.confluencehealth.org", "Beds_Total": 20, "Beds_Total_ICU": 0, "Updated": "2020-12-02T14:44:07", "Beds_Psychiatric": 0 }, "geometry": { "type": "Point", "coordinates": [ -13394304.734897399321198, 6013126.418450159952044 ] } },
{ "type": "Feature", "properties": { "X": -13029857.0970874, "Y": 6137257.2244304903, "OBJECTID": 60, "NAME": "Newport Hospital & Health Services", "LINK": 66, "ADDRESS": "714 West Pine St.", "CITY": "Newport", "ZIP": 99156, "ZIP4": "9046", "PHONE": "(509) 447-2441", "FAX": "(509) 447-2281", "ACUTE": "Yes", "ICU": "No", "CAH": "Yes", "Heli": "Yes", "Weblink": "http://newporthospitalandhealth.org/", "Beds_Total": 25, "Beds_Total_ICU": 0, "Updated": "2020-12-02T14:44:07", "Beds_Psychiatric": 0 }, "geometry": { "type": "Point", "coordinates": [ -13029857.09708740003407, 6137257.224430490285158 ] } },
{ "type": "Feature", "properties": { "X": -13091500.307621401, "Y": 5856878.5010643303, "OBJECTID": 61, "NAME": "Garfield County Public Hospital", "LINK": 67, "ADDRESS": "66 N 6th Street", "CITY": "Pomeroy", "ZIP": 99347, "ZIP4": "0880", "PHONE": "(509) 843-1591", "FAX": "(509) 843-1234", "ACUTE": "Yes", "ICU": "No", "CAH": "Yes", "Heli": "Yes", "Weblink": "http://www.pomeroymd.com", "Beds_Total": 25, "Beds_Total_ICU": 0, "Updated": "2020-12-02T14:44:07", "Beds_Psychiatric": 0 }, "geometry": { "type": "Point", "coordinates": [ -13091500.307621400803328, 5856878.501064330339432 ] } },
{ "type": "Feature", "properties": { "X": -13431897.344931301, "Y": 6039649.2145430101, "OBJECTID": 62, "NAME": "Cascade Medical", "LINK": 68, "ADDRESS": "817 Commercial St", "CITY": "Leavenworth", "ZIP": 98826, "ZIP4": "0330", "PHONE": "(509) 548-5815", "FAX": "(509) 548-1411", "ACUTE": "Yes", "ICU": "No", "CAH": "Yes", "Heli": "Yes", "Weblink": "http://www.cascademedical.org", "Beds_Total": 25, "Beds_Total_ICU": 0, "Updated": "2020-12-02T14:44:07", "Beds_Psychiatric": 0 }, "geometry": { "type": "Point", "coordinates": [ -13431897.344931300729513, 6039649.214543010108173 ] } },
{ "type": "Feature", "properties": { "X": -13307886.195549799, "Y": 5993574.8990581799, "OBJECTID": 63, "NAME": "Columbia Basin Hospital", "LINK": 69, "ADDRESS": "200 Nat Washington Way", "CITY": "Ephrata", "ZIP": 98823, "ZIP4": "1997", "PHONE": "(509) 754-4631", "FAX": "(509) 754-6356", "ACUTE": "Yes", "ICU": "No", "CAH": "Yes", "Heli": "Yes", "Weblink": "http://www.columbiabasinhospital.org", "Beds_Total": 25, "Beds_Total_ICU": 0, "Updated": "2020-12-02T14:44:07", "Beds_Psychiatric": 0 }, "geometry": { "type": "Point", "coordinates": [ -13307886.195549799129367, 5993574.899058179929852 ] } },
{ "type": "Feature", "properties": { "X": -13132388.5869784, "Y": 5830506.0732744997, "OBJECTID": 64, "NAME": "Dayton General Hospital", "LINK": 70, "ADDRESS": "1012 S 3rd St", "CITY": "Dayton", "ZIP": 99328, "ZIP4": "1696", "PHONE": "(509) 382-2531", "FAX": "(509) 382-3205", "ACUTE": "Yes", "ICU": "No", "CAH": "Yes", "Heli": "Yes", "Weblink": "http://www.cchd-wa.org", "Beds_Total": 25, "Beds_Total_ICU": 0, "Updated": "2020-12-02T14:44:07", "Beds_Psychiatric": 0 }, "geometry": { "type": "Point", "coordinates": [ -13132388.5869784001261, 5830506.073274499736726 ] } },
{ "type": "Feature", "properties": { "X": -13847319.5546754, "Y": 6097910.3146168003, "OBJECTID": 65, "NAME": "Forks Community Hospital", "LINK": 71, "ADDRESS": "530 Bogachiel Way", "CITY": "Forks", "ZIP": 98331, "ZIP4": "9120", "PHONE": "(360) 374-6271", "FAX": "(360) 374-5220", "ACUTE": "Yes", "ICU": "No", "CAH": "Yes", "Heli": "Yes", "Weblink": "http://www.forkshospital.org", "Beds_Total": 25, "Beds_Total_ICU": 0, "Updated": "2020-12-02T14:44:07", "Beds_Psychiatric": 0 }, "geometry": { "type": "Point", "coordinates": [ -13847319.554675400257111, 6097910.314616800285876 ] } },
{ "type": "Feature", "properties": { "X": -13786605.676337, "Y": 5938685.4491329696, "OBJECTID": 66, "NAME": "Grays Harbor Community Hospital ", "LINK": 72, "ADDRESS": "915 Anderson Dr", "CITY": "Aberdeen", "ZIP": 98520, "ZIP4": "1097", "PHONE": "(360) 532-8330", "FAX": "(360) 537-5034", "ACUTE": "Yes", "ICU": "Yes", "CAH": "No", "Heli": "Yes", "Weblink": "http://www.ghcares.org/", "Beds_Total": 105, "Beds_Total_ICU": 8, "Updated": "2020-12-02T14:44:07", "Beds_Psychiatric": 0 }, "geometry": { "type": "Point", "coordinates": [ -13786605.676337, 5938685.449132969602942 ] } },
{ "type": "Feature", "properties": { "X": -13649513.590350799, "Y": 6190767.8442417299, "OBJECTID": 67, "NAME": "Island Hospital ", "LINK": 73, "ADDRESS": "1211 24th St", "CITY": "Anacortes", "ZIP": 98221, "ZIP4": "2590", "PHONE": "(360) 299-1300", "FAX": "(360) 299-1339", "ACUTE": "Yes", "ICU": "Yes", "CAH": "No", "Heli": "Yes", "Weblink": "http://www.islandhospital.org", "Beds_Total": 43, "Beds_Total_ICU": 10, "Updated": "2020-12-02T14:44:07", "Beds_Psychiatric": 0 }, "geometry": { "type": "Point", "coordinates": [ -13649513.590350799262524, 6190767.844241729937494 ] } },
{ "type": "Feature", "properties": { "X": -13668839.366545999, "Y": 6124514.8315987196, "OBJECTID": 68, "NAME": "Jefferson Healthcare", "LINK": 74, "ADDRESS": "834 Sheridan St", "CITY": "Port Townsend", "ZIP": 98368, "ZIP4": "2499", "PHONE": "(360) 385-2200", "FAX": "(360) 379-2242", "ACUTE": "Yes", "ICU": "Yes", "CAH": "Yes", "Heli": "Yes", "Weblink": "http://www.jeffersonhealthcare.org", "Beds_Total": 25, "Beds_Total_ICU": 6, "Updated": "2020-12-02T14:44:07", "Beds_Psychiatric": 0 }, "geometry": { "type": "Point", "coordinates": [ -13668839.366546, 6124514.831598719581962 ] } },
{ "type": "Feature", "properties": { "X": -13278406.600883599, "Y": 5825549.8917945502, "OBJECTID": 69, "NAME": "Kadlec Regional Medical Center", "LINK": 75, "ADDRESS": "888 Swift Blvd", "CITY": "Richland", "ZIP": 99352, "ZIP4": "3542", "PHONE": "(509) 946-4611", "FAX": "(509) 942-2679", "ACUTE": "Yes", "ICU": "Yes", "CAH": "No", "Heli": "Yes", "Weblink": "http://www.kadlec.org", "Beds_Total": 270, "Beds_Total_ICU": 20, "Updated": "2020-12-02T14:44:07", "Beds_Psychiatric": 0 }, "geometry": { "type": "Point", "coordinates": [ -13278406.600883599370718, 5825549.891794550232589 ] } },
{ "type": "Feature", "properties": { "X": -13151881.293990601, "Y": 6050133.7017946001, "OBJECTID": 70, "NAME": "Lincoln Hospital", "LINK": 76, "ADDRESS": "10 Nicholls St", "CITY": "Davenport", "ZIP": 99122, "ZIP4": "9729", "PHONE": "(509) 725-7101", "FAX": "(509) 725-2112", "ACUTE": "Yes", "ICU": "No", "CAH": "Yes", "Heli": "Yes", "Weblink": "http://www.lincolnhospital.org", "Beds_Total": 25, "Beds_Total_ICU": 0, "Updated": "2020-12-02T14:44:07", "Beds_Psychiatric": 0 }, "geometry": { "type": "Point", "coordinates": [ -13151881.293990600854158, 6050133.701794600114226 ] } },
{ "type": "Feature", "properties": { "X": -13123760.727747699, "Y": 6197279.3716869196, "OBJECTID": 71, "NAME": "Providence Mount Carmel Hospital", "LINK": 77, "ADDRESS": "982 E Columbia Ave", "CITY": "Colville", "ZIP": 99114, "ZIP4": "3352", "PHONE": "(509) 685-5100", "FAX": "(509) 685-2492", "ACUTE": "Yes", "ICU": "Yes", "CAH": "Yes", "Heli": "Yes", "Weblink": "http://washington.providence.org/hospitals/mount-carmel-hospital", "Beds_Total": 25, "Beds_Total_ICU": 4, "Updated": "2020-12-02T14:44:07", "Beds_Psychiatric": 0 }, "geometry": { "type": "Point", "coordinates": [ -13123760.727747699245811, 6197279.371686919592321 ] } },
{ "type": "Feature", "properties": { "X": -13738497.968733201, "Y": 6126100.7564614797, "OBJECTID": 72, "NAME": "Olympic Memorial Hospital ", "LINK": 78, "ADDRESS": "939 Caroline St", "CITY": "Port Angeles", "ZIP": 98362, "ZIP4": "3997", "PHONE": "(360) 417-7000", "FAX": "(360) 417-7333", "ACUTE": "Yes", "ICU": "Yes", "CAH": "No", "Heli": "Yes", "Weblink": "http://www.olympicmedical.org", "Beds_Total": 126, "Beds_Total_ICU": 10, "Updated": "2020-12-02T14:44:07", "Beds_Psychiatric": 0 }, "geometry": { "type": "Point", "coordinates": [ -13738497.968733200803399, 6126100.756461479701102 ] } },
{ "type": "Feature", "properties": { "X": -13633652.7517223, "Y": 6236485.0174519997, "OBJECTID": 73, "NAME": "PeaceHealth St. Joseph Medical Center", "LINK": 79, "ADDRESS": "2901 Squalicum Parkway", "CITY": "Bellingham", "ZIP": 98225, "ZIP4": "1898", "PHONE": "(360) 734-5400", "FAX": "(360) 788-6393", "ACUTE": "Yes", "ICU": "Yes", "CAH": "No", "Heli": "Yes", "Weblink": "http://www.peacehealth.org/st-joseph", "Beds_Total": 255, "Beds_Total_ICU": 34, "Updated": "2020-12-02T14:44:07", "Beds_Psychiatric": 20 }, "geometry": { "type": "Point", "coordinates": [ -13633652.751722300425172, 6236485.01745199970901 ] } },
{ "type": "Feature", "properties": { "X": -13276540.076560801, "Y": 5963018.7252539899, "OBJECTID": 74, "NAME": "Samaritan Healthcare", "LINK": 80, "ADDRESS": "801 E. Wheeler Rd", "CITY": "Moses Lake", "ZIP": 98837, "ZIP4": "1899", "PHONE": "(509) 765-5606", "FAX": "(509) 764-3236", "ACUTE": "Yes", "ICU": "Yes", "CAH": "No", "Heli": "Yes", "Weblink": "http://www.samaritanhealthcare.com", "Beds_Total": 50, "Beds_Total_ICU": 15, "Updated": "2020-12-02T14:44:07", "Beds_Psychiatric": 0 }, "geometry": { "type": "Point", "coordinates": [ -13276540.076560800895095, 5963018.72525398992002 ] } },
{ "type": "Feature", "properties": { "X": -13359082.705049001, "Y": 5832178.2616208401, "OBJECTID": 75, "NAME": "Astria Sunnyside Hospital ", "LINK": 81, "ADDRESS": "1016 Tacoma Avenue", "CITY": "Sunnyside", "ZIP": 98944, "ZIP4": "2262", "PHONE": "(509) 837-1500", "FAX": "(509) 837-1740", "ACUTE": "Yes", "ICU": "Yes", "CAH": "Yes", "Heli": "Yes", "Weblink": "https://www.astria.health/locations/astria-sunnyside-hospital", "Beds_Total": 37, "Beds_Total_ICU": 7, "Updated": "2020-12-02T14:44:07", "Beds_Psychiatric": 0 }, "geometry": { "type": "Point", "coordinates": [ -13359082.705049, 5832178.261620840057731 ] } },
{ "type": "Feature", "properties": { "X": -13030431.676711399, "Y": 5845144.8092573304, "OBJECTID": 76, "NAME": "Tri-State Memorial Hospital", "LINK": 82, "ADDRESS": "1221 Highland Ave", "CITY": "Clarkston", "ZIP": 99403, "ZIP4": "0189", "PHONE": "(509) 758-5511", "FAX": "(509) 758-3566", "ACUTE": "Yes", "ICU": "Yes", "CAH": "Yes", "Heli": "Yes", "Weblink": "http://www.tristatehospital.org", "Beds_Total": 25, "Beds_Total_ICU": 4, "Updated": "2020-12-02T14:44:07", "Beds_Psychiatric": 0 }, "geometry": { "type": "Point", "coordinates": [ -13030431.676711399108171, 5845144.80925733037293 ] } },
{ "type": "Feature", "properties": { "X": -13650557.6714727, "Y": 6037784.4616405899, "OBJECTID": 77, "NAME": "Franciscan Health St. Michael Medical Center", "LINK": 83, "ADDRESS": "2520 Cherry Ave", "CITY": "Bremerton", "ZIP": 98310, "ZIP4": "4270", "PHONE": "(360) 377-3911", "FAX": "(360) 792-6515", "ACUTE": "Yes", "ICU": "Yes", "CAH": "No", "Heli": "Yes", "Weblink": "http://www.harrisonmedical.org", "Beds_Total": 260, "Beds_Total_ICU": 20, "Updated": "2020-12-02T14:44:07", "Beds_Psychiatric": 0 }, "geometry": { "type": "Point", "coordinates": [ -13650557.671472700312734, 6037784.461640589870512 ] } },
{ "type": "Feature", "properties": { "X": -13631587.520935601, "Y": 5984569.9592231102, "OBJECTID": 78, "NAME": "MultiCare Mary Bridge Children's Hospital and Health Center", "LINK": 84, "ADDRESS": "317 Martin Luther King Jr Way", "CITY": "Tacoma", "ZIP": 98405, "ZIP4": "4234", "PHONE": "(253) 403-1400", "FAX": "(253) 403-1247", "ACUTE": "Yes", "ICU": "Yes", "CAH": "No", "Heli": "Yes", "Weblink": "http://www.multicare.org/marybridge", "Beds_Total": 82, "Beds_Total_ICU": 20, "Updated": "2020-12-02T14:44:07", "Beds_Psychiatric": 0 }, "geometry": { "type": "Point", "coordinates": [ -13631587.520935600623488, 5984569.959223110228777 ] } },
{ "type": "Feature", "properties": { "X": -13657156.787915301, "Y": 6142513.1125754695, "OBJECTID": 79, "NAME": "WhidbeyHealth", "LINK": 85, "ADDRESS": "101 North Main Street", "CITY": "Coupeville", "ZIP": 98239, "ZIP4": "3413", "PHONE": "(360) 678-5151", "FAX": "(360) 678-0945", "ACUTE": "Yes", "ICU": "Yes", "CAH": "Yes", "Heli": "Yes", "Weblink": "https://whidbeyhealth.org/", "Beds_Total": 25, "Beds_Total_ICU": 6, "Updated": "2020-12-02T14:44:07", "Beds_Psychiatric": 0 }, "geometry": { "type": "Point", "coordinates": [ -13657156.787915300577879, 6142513.112575469538569 ] } },
{ "type": "Feature", "properties": { "X": -13617487.761376601, "Y": 6042022.2198955603, "OBJECTID": 80, "NAME": "Virginia Mason Medical Center", "LINK": 86, "ADDRESS": "1100 Ninth Avenue", "CITY": "Seattle", "ZIP": 98101, "ZIP4": "0900", "PHONE": "(206) 624-1144", "FAX": "(206) 223-6976", "ACUTE": "Yes", "ICU": "Yes", "CAH": "No", "Heli": "No", "Weblink": "http://www.virginiamason.org", "Beds_Total": 371, "Beds_Total_ICU": 47, "Updated": "2020-12-02T14:44:07", "Beds_Psychiatric": 0 }, "geometry": { "type": "Point", "coordinates": [ -13617487.761376600712538, 6042022.21989556029439 ] } },
{ "type": "Feature", "properties": { "X": -13686930.298669901, "Y": 5949051.6364318896, "OBJECTID": 81, "NAME": "Capital Medical Center", "LINK": 87, "ADDRESS": "3900 Capital Mall Dr SW", "CITY": "Olympia", "ZIP": 98502, "ZIP4": " ", "PHONE": "(360) 754-5858", "FAX": "(360) 956-2574", "ACUTE": "Yes", "ICU": "Yes", "CAH": "No", "Heli": "Yes", "Weblink": "http://www.capitalmedical.com", "Beds_Total": 107, "Beds_Total_ICU": 10, "Updated": "2020-12-02T14:44:07", "Beds_Psychiatric": 0 }, "geometry": { "type": "Point", "coordinates": [ -13686930.298669900745153, 5949051.636431889608502 ] } },
{ "type": "Feature", "properties": { "X": -13278334.411017699, "Y": 5825837.2541797897, "OBJECTID": 82, "NAME": "Lourdes Counseling Center", "LINK": 88, "ADDRESS": "1175 Carondelet Drive", "CITY": "Richland", "ZIP": 99352, "ZIP4": "3396", "PHONE": "(509) 943-9104", "FAX": "(509) 943-7206", "ACUTE": "No", "ICU": "No", "CAH": "No", "Heli": "No", "Weblink": "http://www.lourdeshealth.net", "Beds_Total": 44, "Beds_Total_ICU": 0, "Updated": "2020-12-02T14:44:07", "Beds_Psychiatric": 21 }, "geometry": { "type": "Point", "coordinates": [ -13278334.411017699167132, 5825837.254179789684713 ] } },
{ "type": "Feature", "properties": { "X": -13613926.0263549, "Y": 6022048.3913321197, "OBJECTID": 83, "NAME": "Cascade Behavioral Health", "LINK": 89, "ADDRESS": "12844 Military Road South", "CITY": "Tukwila", "ZIP": 98168, "ZIP4": " ", "PHONE": "(206) 244-0180", "FAX": "(206) 243-7002", "ACUTE": "No", "ICU": "No", "CAH": "No", "Heli": "No", "Weblink": "http://www.cascadebh.com", "Beds_Total": 137, "Beds_Total_ICU": 0, "Updated": "2020-12-02T14:44:07", "Beds_Psychiatric": 137 }, "geometry": { "type": "Point", "coordinates": [ -13613926.026354899629951, 6022048.391332119703293 ] } },
{ "type": "Feature", "properties": { "X": -13623229.1550452, "Y": 6051694.9681028798, "OBJECTID": 84, "NAME": "Swedish Ballard", "LINK": 91, "ADDRESS": "5300 Tallman Ave NW", "CITY": "Seattle", "ZIP": 98107, "ZIP4": "3985", "PHONE": "(206) 782-2700", "FAX": "(206) 781-6155", "ACUTE": "Yes", "ICU": "No", "CAH": "No", "Heli": "No", "Weblink": "http://www.swedish.org/locations/ballard-campus", "Beds_Total": 75, "Beds_Total_ICU": 0, "Updated": "2020-12-02T14:44:07", "Beds_Psychiatric": 0 }, "geometry": { "type": "Point", "coordinates": [ -13623229.155045200139284, 6051694.968102879822254 ] } },
{ "type": "Feature", "properties": { "X": -13615267.136365799, "Y": 6034497.2108825799, "OBJECTID": 85, "NAME": "VA Puget Sound Health Care System", "LINK": 92, "ADDRESS": "1660 S. Columbian Way", "CITY": "Seattle", "ZIP": 98108, "ZIP4": "1597", "PHONE": "(206) 762-1010", "FAX": "(206) 764-2250", "ACUTE": "Yes", "ICU": "Yes", "CAH": "No", "Heli": "No", "Weblink": "http://www.pugetsound.va.gov", "Beds_Total": 459, "Beds_Total_ICU": 18, "Updated": "2020-12-02T14:44:07", "Beds_Psychiatric": 0 }, "geometry": { "type": "Point", "coordinates": [ -13615267.136365799233317, 6034497.210882579907775 ] } },
{ "type": "Feature", "properties": { "X": -13617044.158579599, "Y": 6041202.4973447397, "OBJECTID": 86, "NAME": "UW Medicine/Harborview Medical Center", "LINK": 93, "ADDRESS": "325 Ninth Ave", "CITY": "Seattle", "ZIP": 98104, "ZIP4": "2499", "PHONE": "(206) 744-3000", "FAX": "(206) 744-8551", "ACUTE": "Yes", "ICU": "Yes", "CAH": "No", "Heli": "Yes", "Weblink": "http://www.uwmedicine.org/harborview", "Beds_Total": 413, "Beds_Total_ICU": 97, "Updated": "2020-12-02T14:44:07", "Beds_Psychiatric": 45 }, "geometry": { "type": "Point", "coordinates": [ -13617044.158579599112272, 6041202.497344739735126 ] } },
{ "type": "Feature", "properties": { "X": -13618698.630514501, "Y": 6059297.3533183802, "OBJECTID": 87, "NAME": "UW Medical Center - Northwest Seattle Hospital ", "LINK": 94, "ADDRESS": "1550 North 115th St", "CITY": "Seattle", "ZIP": 98133, "ZIP4": "9733", "PHONE": "(877) 364-0500", "FAX": "(206) 368-1949", "ACUTE": "Yes", "ICU": "Yes", "CAH": "No", "Heli": "Yes", "Weblink": "http://www.uwmedicine.org/northwest-hospital", "Beds_Total": 281, "Beds_Total_ICU": 15, "Updated": "2020-12-02T14:44:07", "Beds_Psychiatric": 27 }, "geometry": { "type": "Point", "coordinates": [ -13618698.630514500662684, 6059297.353318380191922 ] } },
{ "type": "Feature", "properties": { "X": -13601814.1195857, "Y": 6043948.7558157602, "OBJECTID": 88, "NAME": "Overlake Medical Center ", "LINK": 95, "ADDRESS": "1035 116th Ave NE", "CITY": "Bellevue", "ZIP": 98004, "ZIP4": "4686", "PHONE": "(425) 688-5000", "FAX": "(425) 688-5087", "ACUTE": "Yes", "ICU": "Yes", "CAH": "No", "Heli": "Yes", "Weblink": "http://www.overlakehospital.org", "Beds_Total": 349, "Beds_Total_ICU": 30, "Updated": "2020-12-02T14:44:07", "Beds_Psychiatric": 34 }, "geometry": { "type": "Point", "coordinates": [ -13601814.119585700333118, 6043948.755815760232508 ] } },
{ "type": "Feature", "properties": { "X": -13419336.0255103, "Y": 5876013.2318254402, "OBJECTID": 89, "NAME": "Virginia Mason Memorial Hospital", "LINK": 97, "ADDRESS": "2811 Tieton Drive", "CITY": "Yakima", "ZIP": 98902, "ZIP4": "3761", "PHONE": "(509) 575-8000", "FAX": "(509) 574-5800", "ACUTE": "Yes", "ICU": "Yes", "CAH": "No", "Heli": "Yes", "Weblink": "http://www.yakimamemorialhospital.org", "Beds_Total": 226, "Beds_Total_ICU": 27, "Updated": "2020-12-02T14:44:07", "Beds_Psychiatric": 18 }, "geometry": { "type": "Point", "coordinates": [ -13419336.025510299950838, 5876013.231825440190732 ] } },
{ "type": "Feature", "properties": { "X": -13603717.489151901, "Y": 6060253.3286612798, "OBJECTID": 90, "NAME": "Fairfax Behavioral Health", "LINK": 98, "ADDRESS": "10200 NE 132nd St", "CITY": "Kirkland", "ZIP": 98034, "ZIP4": "2899", "PHONE": "(425) 821-2000", "FAX": "(425) 821-9010", "ACUTE": "No", "ICU": "No", "CAH": "No", "Heli": "No", "Weblink": "http://www.fairfaxhospital.com", "Beds_Total": 221, "Beds_Total_ICU": 0, "Updated": "2020-12-02T14:44:07", "Beds_Psychiatric": 133 }, "geometry": { "type": "Point", "coordinates": [ -13603717.48915190063417, 6060253.328661279752851 ] } },
{ "type": "Feature", "properties": { "X": -13579842.375338599, "Y": 6084295.52036798, "OBJECTID": 91, "NAME": "EvergreenHealth Monroe", "LINK": 99, "ADDRESS": "14701 179th Ave SE", "CITY": "Monroe", "ZIP": 98272, "ZIP4": "0646", "PHONE": "(360) 794-7497", "FAX": "(360) 794-1486", "ACUTE": "Yes", "ICU": "Yes", "CAH": "No", "Heli": "Yes", "Weblink": "http://www.evergreenhealthmonroe.com/eh-monroe", "Beds_Total": 35, "Beds_Total_ICU": 4, "Updated": "2020-12-02T14:44:07", "Beds_Psychiatric": 14 }, "geometry": { "type": "Point", "coordinates": [ -13579842.375338599085808, 6084295.520367980003357 ] } },
{ "type": "Feature", "properties": { "X": -13613208.2089034, "Y": 5971370.0074514402, "OBJECTID": 92, "NAME": "MultiCare Good Samaritan Hospital", "LINK": 100, "ADDRESS": "401 15th Ave SE", "CITY": "Puyallup", "ZIP": 98372, "ZIP4": "3851", "PHONE": "(253) 697-4000", "FAX": "(253) 697-5174", "ACUTE": "Yes", "ICU": "Yes", "CAH": "No", "Heli": "Yes", "Weblink": "http://www.multicare.org/goodsam", "Beds_Total": 286, "Beds_Total_ICU": 90, "Updated": "2020-12-02T14:44:07", "Beds_Psychiatric": 0 }, "geometry": { "type": "Point", "coordinates": [ -13613208.208903400227427, 5971370.00745144020766 ] } },
{ "type": "Feature", "properties": { "X": -13615553.4818231, "Y": 6041839.98666023, "OBJECTID": 93, "NAME": "Swedish Cherry Hill", "LINK": 101, "ADDRESS": "500 17th Ave", "CITY": "Seattle", "ZIP": 98122, "ZIP4": "5711", "PHONE": "(206) 320-2000", "FAX": "(206) 320-3154", "ACUTE": "Yes", "ICU": "Yes", "CAH": "No", "Heli": "No", "Weblink": "http://www.swedish.org/locations/cherry-hill-campus", "Beds_Total": 227, "Beds_Total_ICU": 246, "Updated": "2020-12-02T14:44:07", "Beds_Psychiatric": 22 }, "geometry": { "type": "Point", "coordinates": [ -13615553.481823099777102, 6041839.986660229973495 ] } },
{ "type": "Feature", "properties": { "X": -13579624.7658592, "Y": 5976285.1776649198, "OBJECTID": 94, "NAME": "Franciscan Health St. Elizabeth Hospital", "LINK": 102, "ADDRESS": "1455 Battersby Avenue", "CITY": "Enumclaw", "ZIP": 98022, "ZIP4": "0218", "PHONE": "(360) 802-8800", "FAX": "(360) 802-3235", "ACUTE": "Yes", "ICU": "Yes", "CAH": "Yes", "Heli": "Yes", "Weblink": "http://www.chifranciscan.org/St-Elizabeth-Hospital/", "Beds_Total": 25, "Beds_Total_ICU": 4, "Updated": "2020-12-02T14:44:07", "Beds_Psychiatric": 0 }, "geometry": { "type": "Point", "coordinates": [ -13579624.765859199687839, 5976285.177664919756353 ] } },
{ "type": "Feature", "properties": { "X": -13615716.024534, "Y": 6043864.6149393804, "OBJECTID": 95, "NAME": "Kaiser Permanente - Capitol Hill Campus", "LINK": 103, "ADDRESS": "201 16th Avenue East", "CITY": "Seattle", "ZIP": 98112, "ZIP4": "5298", "PHONE": "(206) 326-3000", "FAX": "(206) 448-5105", "ACUTE": "Yes", "ICU": "No", "CAH": "No", "Heli": "No", "Weblink": "http://www.wsha.org/hospitalDetail.cfm?HID=73", "Beds_Total": 72, "Beds_Total_ICU": 0, "Updated": "2020-12-02T14:44:07", "Beds_Psychiatric": 0 }, "geometry": { "type": "Point", "coordinates": [ -13615716.024534, 6043864.614939380437136 ] } },
{ "type": "Feature", "properties": { "X": -13619184.0862085, "Y": 6017061.4646512903, "OBJECTID": 96, "NAME": "Franciscan Health St. Anne Hospital", "LINK": 104, "ADDRESS": "16251 Sylvester Rd SW", "CITY": "Burien", "ZIP": 98166, "ZIP4": "0657", "PHONE": "(206) 244-9970", "FAX": "(206) 248-5385", "ACUTE": "Yes", "ICU": "Yes", "CAH": "No", "Heli": "Yes", "Weblink": "http://www.chifranciscan.org/highline-medical-center", "Beds_Total": 133, "Beds_Total_ICU": 10, "Updated": "2020-12-02T14:44:07", "Beds_Psychiatric": 0 }, "geometry": { "type": "Point", "coordinates": [ -13619184.086208499968052, 6017061.464651290327311 ] } },
{ "type": "Feature", "properties": { "X": -13675308.5044409, "Y": 5950719.8252235502, "OBJECTID": 97, "NAME": "Providence St. Peter Hospital ", "LINK": 106, "ADDRESS": "413 Lilly Rd NE", "CITY": "Olympia", "ZIP": 98506, "ZIP4": "5166", "PHONE": "(360) 491-9480", "FAX": "(360) 493-4277", "ACUTE": "Yes", "ICU": "Yes", "CAH": "No", "Heli": "Yes", "Weblink": "http://washington.providence.org/hospitals/st-peter", "Beds_Total": 390, "Beds_Total_ICU": 42, "Updated": "2020-12-02T14:44:07", "Beds_Psychiatric": 20 }, "geometry": { "type": "Point", "coordinates": [ -13675308.504440899938345, 5950719.825223550200462 ] } },
{ "type": "Feature", "properties": { "X": -13636864.7138722, "Y": 5967297.8646453097, "OBJECTID": 98, "NAME": "Franciscan Health St. Clare Hospital", "LINK": 107, "ADDRESS": "11315 Bridgeport Way SW", "CITY": "Lakewood", "ZIP": 98499, "ZIP4": "3070", "PHONE": "(253) 588-1711", "FAX": "(253) 584-3001", "ACUTE": "Yes", "ICU": "Yes", "CAH": "No", "Heli": "Yes", "Weblink": "http://www.chifranciscan.org/St-Clare-Hospital/", "Beds_Total": 106, "Beds_Total_ICU": 10, "Updated": "2020-12-02T14:44:07", "Beds_Psychiatric": 0 }, "geometry": { "type": "Point", "coordinates": [ -13636864.713872199878097, 5967297.864645309746265 ] } },
{ "type": "Feature", "properties": { "X": -13617423.026567001, "Y": 5989981.3481443003, "OBJECTID": 99, "NAME": "Franciscan Health St. Francis Hospital ", "LINK": 108, "ADDRESS": "34515 9th Avenue South", "CITY": "Federal Way", "ZIP": 98003, "ZIP4": "6799", "PHONE": "(253) 944-8100", "FAX": "(253) 944-7988", "ACUTE": "Yes", "ICU": "Yes", "CAH": "No", "Heli": "Yes", "Weblink": "http://www.chifranciscan.org/St-Francis-Hospital/", "Beds_Total": 124, "Beds_Total_ICU": 14, "Updated": "2020-12-02T14:44:07", "Beds_Psychiatric": 0 }, "geometry": { "type": "Point", "coordinates": [ -13617423.026567, 5989981.348144300282001 ] } },
{ "type": "Feature", "properties": { "X": -13653139.795278801, "Y": 5735748.8187343404, "OBJECTID": 100, "NAME": "Legacy Salmon Creek Medical Center ", "LINK": 109, "ADDRESS": "2211 NE 139th Street", "CITY": "Vancouver", "ZIP": 98686, "ZIP4": "2742", "PHONE": "(360) 487-1000", "FAX": "(360) 487-3459", "ACUTE": "Yes", "ICU": "Yes", "CAH": "No", "Heli": "Yes", "Weblink": "http://www.legacyhealth.org", "Beds_Total": 220, "Beds_Total_ICU": 16, "Updated": "2020-12-02T14:44:07", "Beds_Psychiatric": 0 }, "geometry": { "type": "Point", "coordinates": [ -13653139.795278800651431, 5735748.818734340369701 ] } },
{ "type": "Feature", "properties": { "X": -13634528.628262499, "Y": 5981606.5105172703, "OBJECTID": 101, "NAME": "MultiCare Allenmore Hospital", "LINK": 110, "ADDRESS": "1901 S. Union Ave", "CITY": "Tacoma", "ZIP": 98411, "ZIP4": "0414", "PHONE": "(253) 459-6633", "FAX": "(253) 459-6440", "ACUTE": "Yes", "ICU": "Yes", "CAH": "No", "Heli": "No", "Weblink": "http://www.multicare.org/allenmore", "Beds_Total": 70, "Beds_Total_ICU": 6, "Updated": "2020-12-02T14:44:07", "Beds_Psychiatric": 0 }, "geometry": { "type": "Point", "coordinates": [ -13634528.628262499347329, 5981606.510517270304263 ] } },
{ "type": "Feature", "properties": { "X": -13649277.970455199, "Y": 6001531.2405095398, "OBJECTID": 102, "NAME": "Franciscan Health St. Anthony Hospital", "LINK": 111, "ADDRESS": "11567 Canterwood Blvd NW", "CITY": "Gig Harbor", "ZIP": 98332, "ZIP4": "5812", "PHONE": "(253) 530-2000", "FAX": " ", "ACUTE": "Yes", "ICU": "Yes", "CAH": "No", "Heli": "Yes", "Weblink": "http://www.chifranciscan.org/St-Anthony-Hospital/", "Beds_Total": 112, "Beds_Total_ICU": 16, "Updated": "2020-12-02T14:44:07", "Beds_Psychiatric": 0 }, "geometry": { "type": "Point", "coordinates": [ -13649277.970455199480057, 6001531.240509539842606 ] } },
{ "type": "Feature", "properties": { "X": -13583411.293767, "Y": 6029964.9726501899, "OBJECTID": 103, "NAME": "Swedish Isaquah", "LINK": 112, "ADDRESS": "751 NE Blakely Drive", "CITY": "Issaquah", "ZIP": 98029, "ZIP4": " ", "PHONE": "(425) 313-4000", "FAX": " ", "ACUTE": "Yes", "ICU": "Yes", "CAH": "No", "Heli": "No", "Weblink": "http://www.swedish.org/locations/issaquah-campus", "Beds_Total": 144, "Beds_Total_ICU": 18, "Updated": "2020-12-02T14:44:07", "Beds_Psychiatric": 0 }, "geometry": { "type": "Point", "coordinates": [ -13583411.293767, 6029964.972650189884007 ] } },
{ "type": "Feature", "properties": { "X": -13631373.720786899, "Y": 5984502.6959737996, "OBJECTID": 104, "NAME": "MultiCare Tacoma General Hospital ", "LINK": 114, "ADDRESS": "315 Martin Luther King Jr. Way", "CITY": "Tacoma", "ZIP": 98405, "ZIP4": "4291", "PHONE": "(253) 403-1000", "FAX": "(253) 403-1180", "ACUTE": "Yes", "ICU": "Yes", "CAH": "No", "Heli": "Yes", "Weblink": "http://www.wsha.org/hospitalDetail.cfm?HID=102", "Beds_Total": 567, "Beds_Total_ICU": 43, "Updated": "2020-12-02T14:44:07", "Beds_Psychiatric": 0 }, "geometry": { "type": "Point", "coordinates": [ -13631373.720786899328232, 5984502.695973799563944 ] } },
{ "type": "Feature", "properties": { "X": -13695402.804926399, "Y": 6195387.6254199101, "OBJECTID": 105, "NAME": "Peacehealth Peace Island Medical Center", "LINK": 115, "ADDRESS": "1117 Spring Street", "CITY": "Friday Harbor", "ZIP": 98250, "ZIP4": " ", "PHONE": "(360) 378-2141", "FAX": "(360) 788-6393", "ACUTE": "Yes", "ICU": "No", "CAH": "Yes", "Heli": "No", "Weblink": "http://www.peacehealth.org/peace-island", "Beds_Total": 25, "Beds_Total_ICU": 0, "Updated": "2020-12-02T14:44:07", "Beds_Psychiatric": 0 }, "geometry": { "type": "Point", "coordinates": [ -13695402.80492639914155, 6195387.62541991006583 ] } },
{ "type": "Feature", "properties": { "X": -13736042.4594108, "Y": 5943208.1562457904, "OBJECTID": 106, "NAME": "Summit Pacific Medical Center", "LINK": 116, "ADDRESS": "600 East Main Street", "CITY": "Elma", "ZIP": 98541, "ZIP4": " ", "PHONE": "(360) 346-2222", "FAX": "(360) 346-2160", "ACUTE": "Yes", "ICU": "No", "CAH": "Yes", "Heli": "Yes", "Weblink": "http://www.summitpacificmedicalcenter.org/", "Beds_Total": 25, "Beds_Total_ICU": 0, "Updated": "2020-12-02T14:44:07", "Beds_Psychiatric": 0 }, "geometry": { "type": "Point", "coordinates": [ -13736042.459410799667239, 5943208.156245790421963 ] } },
{ "type": "Feature", "properties": { "X": -13617557.8848473, "Y": 6042528.9329516497, "OBJECTID": 107, "NAME": "Kindred Hospital Seattle - First Hill", "LINK": 117, "ADDRESS": "1334 Terry Ave", "CITY": "Seattle", "ZIP": 98101, "ZIP4": "2747", "PHONE": "(206) 682-2661", "FAX": "(206) 682-2470", "ACUTE": "Yes", "ICU": "No", "CAH": "No", "Heli": "No", "Weblink": "https://www.kindredhealthcare.com/locations/transitional-care-hospitals/kindred-hospital-seattle-first-hill", "Beds_Total": 50, "Beds_Total_ICU": 6, "Updated": "2020-12-02T14:44:07", "Beds_Psychiatric": 0 }, "geometry": { "type": "Point", "coordinates": [ -13617557.884847300127149, 6042528.932951649650931 ] } },
{ "type": "Feature", "properties": { "X": -13592518.711849, "Y": 6000888.9931248203, "OBJECTID": 108, "NAME": "MultiCare Covington Medical Center", "LINK": 120, "ADDRESS": "17700 SE 272nd St", "CITY": "Covington", "ZIP": 98042, "ZIP4": " ", "PHONE": "(235) 372-6500", "FAX": " ", "ACUTE": "Yes", "ICU": "No", "CAH": "No", "Heli": "No", "Weblink": "https://www.multicare.org/covington-medical-center/", "Beds_Total": 58, "Beds_Total_ICU": 0, "Updated": "2020-12-02T14:44:07", "Beds_Psychiatric": 0 }, "geometry": { "type": "Point", "coordinates": [ -13592518.711849, 6000888.993124820291996 ] } },
{ "type": "Feature", "properties": { "X": -13600958.020792, "Y": 6129970.7038758704, "OBJECTID": 109, "NAME": "Smokey Point Behavioral Hospital", "LINK": 122, "ADDRESS": "3955 156th St NE", "CITY": "Marysville", "ZIP": 98271, "ZIP4": " ", "PHONE": "(844) 202-5555", "FAX": " ", "ACUTE": "No", "ICU": "No", "CAH": "No", "Heli": "No", "Weblink": "http://www.smokeypointbehavioralhospital.com", "Beds_Total": 115, "Beds_Total_ICU": 0, "Updated": "2020-12-02T14:44:07", "Beds_Psychiatric": 115 }, "geometry": { "type": "Point", "coordinates": [ -13600958.020792, 6129970.703875870443881 ] } },
{ "type": "Feature", "properties": { "X": -13605106.438094299, "Y": 6102780.5412509404, "OBJECTID": 110, "NAME": "BHC Fairfax Hospital North", "LINK": 124, "ADDRESS": "916 Pacific Ave", "CITY": "Everett", "ZIP": 98201, "ZIP4": " ", "PHONE": "(425) 446-3000", "FAX": " ", "ACUTE": "No", "ICU": "No", "CAH": "No", "Heli": "No", "Weblink": "http://www.fiarfaxhospital.com", "Beds_Total": 30, "Beds_Total_ICU": 0, "Updated": "2020-12-02T14:44:07", "Beds_Psychiatric": 30 }, "geometry": { "type": "Point", "coordinates": [ -13605106.438094299286604, 6102780.541250940412283 ] } },
{ "type": "Feature", "properties": { "X": -13605247.2524947, "Y": 6102825.5001516202, "OBJECTID": 111, "NAME": "Providence Regional Medical Center - Everett Pacific Campus", "LINK": 129, "ADDRESS": "916 Pacific Ave", "CITY": "Everett", "ZIP": 98201, "ZIP4": " ", "PHONE": "(425) 261-2000", "FAX": " ", "ACUTE": "No", "ICU": "No", "CAH": "No", "Heli": "No", "Weblink": "http://www.providence.org", "Beds_Total": 50, "Beds_Total_ICU": 0, "Updated": "2020-12-02T14:44:07", "Beds_Psychiatric": 0 }, "geometry": { "type": "Point", "coordinates": [ -13605247.25249470025301, 6102825.50015162024647 ] } },
{ "type": "Feature", "properties": { "X": -13579622.7808755, "Y": 6084151.7383589903, "OBJECTID": 112, "NAME": "Fairfax Behavioral Health Monroe", "LINK": 125, "ADDRESS": "14701 179th Ave SE", "CITY": "Monroe", "ZIP": 98272, "ZIP4": " ", "PHONE": "(360) 365-5300", "FAX": " ", "ACUTE": "No", "ICU": "No", "CAH": "No", "Heli": "No", "Weblink": "http://www.fiarfaxhospital.com", "Beds_Total": 34, "Beds_Total_ICU": 0, "Updated": "2020-12-02T14:44:07", "Beds_Psychiatric": 34 }, "geometry": { "type": "Point", "coordinates": [ -13579622.780875500291586, 6084151.738358990289271 ] } },
{ "type": "Feature", "properties": { "X": -13652465.0282607, "Y": 5734671.4340174897, "OBJECTID": 113, "NAME": "Rainier Springs", "LINK": 126, "ADDRESS": "2805 NE 129th St", "CITY": "Vancouver", "ZIP": 98686, "ZIP4": " ", "PHONE": "(360) 869-0098", "FAX": " ", "ACUTE": "No", "ICU": "No", "CAH": "No", "Heli": "No", "Weblink": "https://rainiersprings.com", "Beds_Total": 72, "Beds_Total_ICU": 0, "Updated": "2020-12-02T14:44:07", "Beds_Psychiatric": 72 }, "geometry": { "type": "Point", "coordinates": [ -13652465.028260700404644, 5734671.434017489664257 ] } },
{ "type": "Feature", "properties": { "X": -13070505.221100399, "Y": 6049064.4283127002, "OBJECTID": 114, "NAME": "Inland Northwest Behavioral Health", "LINK": 128, "ADDRESS": "104 W 5th Ave", "CITY": "Spokane", "ZIP": 99204, "ZIP4": " ", "PHONE": "(509) 992-1888", "FAX": " ", "ACUTE": "No", "ICU": "No", "CAH": "No", "Heli": "No", "Weblink": "https://inlandnorthwestbh.com/", "Beds_Total": 100, "Beds_Total_ICU": 0, "Updated": "2020-12-02T14:44:07", "Beds_Psychiatric": 100 }, "geometry": { "type": "Point", "coordinates": [ -13070505.221100399270654, 6049064.428312700241804 ] } },
{ "type": "Feature", "properties": { "X": -13634486.712894, "Y": 5981633.0081551503, "OBJECTID": 115, "NAME": "Wellfound Behavioral Health Hospital", "LINK": 123, "ADDRESS": "3402 S 19th St", "CITY": "Tacoma", "ZIP": 98405, "ZIP4": " ", "PHONE": "(253) 301-5400", "FAX": " ", "ACUTE": "No", "ICU": "No", "CAH": "No", "Heli": "No", "Weblink": "http://www.wellfound.org/", "Beds_Total": 120, "Beds_Total_ICU": 0, "Updated": "2020-12-02T14:44:07", "Beds_Psychiatric": 120 }, "geometry": { "type": "Point", "coordinates": [ -13634486.712894, 5981633.008155150339007 ] } },
{ "type": "Feature", "properties": { "X": -13673106.5783219, "Y": 5949022.2802976603, "OBJECTID": 116, "NAME": "South Sound Behavioral Hospital", "LINK": 127, "ADDRESS": "605 Woodland Square Loop SE", "CITY": "Lacey", "ZIP": 98503, "ZIP4": " ", "PHONE": "(844) 949-8888", "FAX": " ", "ACUTE": "No", "ICU": "No", "CAH": "No", "Heli": "No", "Weblink": "https://www.southsoundbehavioralhospital.com/", "Beds_Total": 108, "Beds_Total_ICU": 0, "Updated": "2020-12-02T14:44:07", "Beds_Psychiatric": 108 }, "geometry": { "type": "Point", "coordinates": [ -13673106.578321900218725, 5949022.280297660268843 ] } },
{ "type": "Feature", "properties": { "X": -13617690.755028499, "Y": 6044954.4350920599, "OBJECTID": 117, "NAME": "Seattle Cancer Care Alliance", "LINK": 128, "ADDRESS": "825 Eastlake Ave. E.", "CITY": "Seattle", "ZIP": 98109, "ZIP4": "1023", "PHONE": "(855) 557-0555", "FAX": "(206) 288-6643", "ACUTE": "No", "ICU": "No", "CAH": "No", "Heli": "No", "Weblink": "http://www.seattlecca.org", "Beds_Total": 20, "Beds_Total_ICU": 0, "Updated": "2020-12-02T14:44:07", "Beds_Psychiatric": 0 }, "geometry": { "type": "Point", "coordinates": [ -13617690.755028499290347, 6044954.435092059895396 ] } }
]
}
